{
    "name": "Heron Airways (HRN)",
    "id": "100079",
    "updateTimestamp": 1716324597.8207064,
    "routes": [
        {
            "departure": {
                "ICAO": "EGSS",
                "name": "London Stansted Airport",
                "latitude": 51.8849983215,
                "longitude": 0.234999999404
            },
            "destination": {
                "ICAO": "EIDW",
                "name": "Dublin Airport",
                "latitude": 53.421299,
                "longitude": -6.27007
            }
        },
        {
            "departure": {
                "ICAO": "RPLL",
                "name": "Ninoy Aquino International Airport",
                "latitude": 14.5086,
                "longitude": 121.019997
            },
            "destination": {
                "ICAO": "RJOO",
                "name": "Osaka International Airport",
                "latitude": 34.785499572753906,
                "longitude": 135.43800354003906
            }
        },
        {
            "departure": {
                "ICAO": "EGSS",
                "name": "London Stansted Airport",
                "latitude": 51.8849983215,
                "longitude": 0.234999999404
            },
            "destination": {
                "ICAO": "EGCC",
                "name": "Manchester Airport",
                "latitude": 53.349375,
                "longitude": -2.279521
            }
        },
        {
            "departure": {
                "ICAO": "EGLL",
                "name": "London Heathrow Airport",
                "latitude": 51.4706,
                "longitude": -0.461941
            },
            "destination": {
                "ICAO": "KJFK",
                "name": "John F Kennedy International Airport",
                "latitude": 40.639801,
                "longitude": -73.7789
            }
        },
        {
            "departure": {
                "ICAO": "EGSS",
                "name": "London Stansted Airport",
                "latitude": 51.8849983215,
                "longitude": 0.234999999404
            },
            "destination": {
                "ICAO": "EBBR",
                "name": "Brussels Airport",
                "latitude": 50.901401519800004,
                "longitude": 4.48443984985
            }
        },
        {
            "departure": {
                "ICAO": "RPVM",
                "name": "Mactan Cebu International Airport",
                "latitude": 10.307499885559,
                "longitude": 123.97899627686
            },
            "destination": {
                "ICAO": "OMDB",
                "name": "Dubai International Airport",
                "latitude": 25.2527999878,
                "longitude": 55.3643989563
            }
        },
        {
            "departure": {
                "ICAO": "EGLL",
                "name": "London Heathrow Airport",
                "latitude": 51.4706,
                "longitude": -0.461941
            },
            "destination": {
                "ICAO": "KLAS",
                "name": "McCarran International Airport",
                "latitude": 36.08010101,
                "longitude": -115.1520004
            }
        },
        {
            "departure": {
                "ICAO": "EGLL",
                "name": "London Heathrow Airport",
                "latitude": 51.4706,
                "longitude": -0.461941
            },
            "destination": {
                "ICAO": "VVPQ",
                "name": "Phu Quoc International Airport",
                "latitude": 10.1698,
                "longitude": 103.9931
            }
        },
        {
            "departure": {
                "ICAO": "RPVM",
                "name": "Mactan Cebu International Airport",
                "latitude": 10.307499885559,
                "longitude": 123.97899627686
            },
            "destination": {
                "ICAO": "WSSS",
                "name": "Singapore Changi Airport",
                "latitude": 1.35019,
                "longitude": 103.994003
            }
        },
        {
            "departure": {
                "ICAO": "EGLL",
                "name": "London Heathrow Airport",
                "latitude": 51.4706,
                "longitude": -0.461941
            },
            "destination": {
                "ICAO": "TNCM",
                "name": "Princess Juliana International Airport",
                "latitude": 18.041000366200002,
                "longitude": -63.1088981628
            }
        },
        {
            "departure": {
                "ICAO": "EGSS",
                "name": "London Stansted Airport",
                "latitude": 51.8849983215,
                "longitude": 0.234999999404
            },
            "destination": {
                "ICAO": "LIMF",
                "name": "Turin Airport",
                "latitude": 45.200802,
                "longitude": 7.64963
            }
        },
        {
            "departure": {
                "ICAO": "EGSS",
                "name": "London Stansted Airport",
                "latitude": 51.8849983215,
                "longitude": 0.234999999404
            },
            "destination": {
                "ICAO": "ENBR",
                "name": "Bergen Airport Flesland",
                "latitude": 60.29339981,
                "longitude": 5.218140125
            }
        },
        {
            "departure": {
                "ICAO": "EGLL",
                "name": "London Heathrow Airport",
                "latitude": 51.4706,
                "longitude": -0.461941
            },
            "destination": {
                "ICAO": "OMDB",
                "name": "Dubai International Airport",
                "latitude": 25.2527999878,
                "longitude": 55.3643989563
            }
        },
        {
            "departure": {
                "ICAO": "EGSS",
                "name": "London Stansted Airport",
                "latitude": 51.8849983215,
                "longitude": 0.234999999404
            },
            "destination": {
                "ICAO": "EPWA",
                "name": "Warsaw Chopin Airport",
                "latitude": 52.1656990051,
                "longitude": 20.967100143399996
            }
        },
        {
            "departure": {
                "ICAO": "EPWA",
                "name": "Warsaw Chopin Airport",
                "latitude": 52.1656990051,
                "longitude": 20.967100143399996
            },
            "destination": {
                "ICAO": "LEIB",
                "name": "Ibiza Airport",
                "latitude": 38.872898,
                "longitude": 1.37312
            }
        },
        {
            "departure": {
                "ICAO": "OMDB",
                "name": "Dubai International Airport",
                "latitude": 25.2527999878,
                "longitude": 55.3643989563
            },
            "destination": {
                "ICAO": "WSSS",
                "name": "Singapore Changi Airport",
                "latitude": 1.35019,
                "longitude": 103.994003
            }
        },
        {
            "departure": {
                "ICAO": "EGSS",
                "name": "London Stansted Airport",
                "latitude": 51.8849983215,
                "longitude": 0.234999999404
            },
            "destination": {
                "ICAO": "LEIB",
                "name": "Ibiza Airport",
                "latitude": 38.872898,
                "longitude": 1.37312
            }
        },
        {
            "departure": {
                "ICAO": "LCPH",
                "name": "Paphos International Airport",
                "latitude": 34.71799850463867,
                "longitude": 32.48569869995117
            },
            "destination": {
                "ICAO": "OMDB",
                "name": "Dubai International Airport",
                "latitude": 25.2527999878,
                "longitude": 55.3643989563
            }
        },
        {
            "departure": {
                "ICAO": "LDZA",
                "name": "Zagreb Airport",
                "latitude": 45.7429008484,
                "longitude": 16.0687999725
            },
            "destination": {
                "ICAO": "ESSA",
                "name": "Stockholm-Arlanda Airport",
                "latitude": 59.651901245117,
                "longitude": 17.918600082397
            }
        },
        {
            "departure": {
                "ICAO": "EPWA",
                "name": "Warsaw Chopin Airport",
                "latitude": 52.1656990051,
                "longitude": 20.967100143399996
            },
            "destination": {
                "ICAO": "EGLL",
                "name": "London Heathrow Airport",
                "latitude": 51.4706,
                "longitude": -0.461941
            }
        },
        {
            "departure": {
                "ICAO": "EGSS",
                "name": "London Stansted Airport",
                "latitude": 51.8849983215,
                "longitude": 0.234999999404
            },
            "destination": {
                "ICAO": "ESSA",
                "name": "Stockholm-Arlanda Airport",
                "latitude": 59.651901245117,
                "longitude": 17.918600082397
            }
        },
        {
            "departure": {
                "ICAO": "EGSS",
                "name": "London Stansted Airport",
                "latitude": 51.8849983215,
                "longitude": 0.234999999404
            },
            "destination": {
                "ICAO": "LEMD",
                "name": "Adolfo Su\u00e1rez Madrid\u2013Barajas Airport",
                "latitude": 40.471926,
                "longitude": -3.56264
            }
        },
        {
            "departure": {
                "ICAO": "EGSS",
                "name": "London Stansted Airport",
                "latitude": 51.8849983215,
                "longitude": 0.234999999404
            },
            "destination": {
                "ICAO": "EKVG",
                "name": "V\u00e1gar Airport",
                "latitude": 62.063599,
                "longitude": -7.27722
            }
        },
        {
            "departure": {
                "ICAO": "EPWA",
                "name": "Warsaw Chopin Airport",
                "latitude": 52.1656990051,
                "longitude": 20.967100143399996
            },
            "destination": {
                "ICAO": "ENBR",
                "name": "Bergen Airport Flesland",
                "latitude": 60.29339981,
                "longitude": 5.218140125
            }
        },
        {
            "departure": {
                "ICAO": "EGSS",
                "name": "London Stansted Airport",
                "latitude": 51.8849983215,
                "longitude": 0.234999999404
            },
            "destination": {
                "ICAO": "EDDF",
                "name": "Frankfurt am Main Airport",
                "latitude": 50.033333,
                "longitude": 8.570556
            }
        },
        {
            "departure": {
                "ICAO": "EGSS",
                "name": "London Stansted Airport",
                "latitude": 51.8849983215,
                "longitude": 0.234999999404
            },
            "destination": {
                "ICAO": "LROP",
                "name": "Henri Coand\u0103 International Airport",
                "latitude": 44.5711111,
                "longitude": 26.085
            }
        },
        {
            "departure": {
                "ICAO": "EDDF",
                "name": "Frankfurt am Main Airport",
                "latitude": 50.033333,
                "longitude": 8.570556
            },
            "destination": {
                "ICAO": "GMMX",
                "name": "Menara Airport",
                "latitude": 31.606899261499997,
                "longitude": -8.03629970551
            }
        },
        {
            "departure": {
                "ICAO": "EPWA",
                "name": "Warsaw Chopin Airport",
                "latitude": 52.1656990051,
                "longitude": 20.967100143399996
            },
            "destination": {
                "ICAO": "EDDF",
                "name": "Frankfurt am Main Airport",
                "latitude": 50.033333,
                "longitude": 8.570556
            }
        },
        {
            "departure": {
                "ICAO": "EPKK",
                "name": "Krak\u00f3w John Paul II International Airport",
                "latitude": 50.077702,
                "longitude": 19.7848
            },
            "destination": {
                "ICAO": "LIMF",
                "name": "Turin Airport",
                "latitude": 45.200802,
                "longitude": 7.64963
            }
        },
        {
            "departure": {
                "ICAO": "EGSS",
                "name": "London Stansted Airport",
                "latitude": 51.8849983215,
                "longitude": 0.234999999404
            },
            "destination": {
                "ICAO": "EPKK",
                "name": "Krak\u00f3w John Paul II International Airport",
                "latitude": 50.077702,
                "longitude": 19.7848
            }
        },
        {
            "departure": {
                "ICAO": "ENBR",
                "name": "Bergen Airport Flesland",
                "latitude": 60.29339981,
                "longitude": 5.218140125
            },
            "destination": {
                "ICAO": "EHAM",
                "name": "Amsterdam Airport Schiphol",
                "latitude": 52.308601,
                "longitude": 4.76389
            }
        },
        {
            "departure": {
                "ICAO": "ENBR",
                "name": "Bergen Airport Flesland",
                "latitude": 60.29339981,
                "longitude": 5.218140125
            },
            "destination": {
                "ICAO": "EDDM",
                "name": "Munich Airport",
                "latitude": 48.353802,
                "longitude": 11.7861
            }
        },
        {
            "departure": {
                "ICAO": "ENBR",
                "name": "Bergen Airport Flesland",
                "latitude": 60.29339981,
                "longitude": 5.218140125
            },
            "destination": {
                "ICAO": "EKVG",
                "name": "V\u00e1gar Airport",
                "latitude": 62.063599,
                "longitude": -7.27722
            }
        },
        {
            "departure": {
                "ICAO": "RPVM",
                "name": "Mactan Cebu International Airport",
                "latitude": 10.307499885559,
                "longitude": 123.97899627686
            },
            "destination": {
                "ICAO": "RPLL",
                "name": "Ninoy Aquino International Airport",
                "latitude": 14.5086,
                "longitude": 121.019997
            }
        },
        {
            "departure": {
                "ICAO": "EGSS",
                "name": "London Stansted Airport",
                "latitude": 51.8849983215,
                "longitude": 0.234999999404
            },
            "destination": {
                "ICAO": "EGPH",
                "name": "Edinburgh Airport",
                "latitude": 55.95000076293945,
                "longitude": -3.372499942779541
            }
        },
        {
            "departure": {
                "ICAO": "RPVM",
                "name": "Mactan Cebu International Airport",
                "latitude": 10.307499885559,
                "longitude": 123.97899627686
            },
            "destination": {
                "ICAO": "VVTS",
                "name": "Tan Son Nhat International Airport",
                "latitude": 10.8188,
                "longitude": 106.652
            }
        },
        {
            "departure": {
                "ICAO": "LIRF",
                "name": "Leonardo da Vinci\u2013Fiumicino Airport",
                "latitude": 41.8002778,
                "longitude": 12.2388889
            },
            "destination": {
                "ICAO": "EPWA",
                "name": "Warsaw Chopin Airport",
                "latitude": 52.1656990051,
                "longitude": 20.967100143399996
            }
        },
        {
            "departure": {
                "ICAO": "EBBR",
                "name": "Brussels Airport",
                "latitude": 50.901401519800004,
                "longitude": 4.48443984985
            },
            "destination": {
                "ICAO": "LIRF",
                "name": "Leonardo da Vinci\u2013Fiumicino Airport",
                "latitude": 41.8002778,
                "longitude": 12.2388889
            }
        },
        {
            "departure": {
                "ICAO": "RPLL",
                "name": "Ninoy Aquino International Airport",
                "latitude": 14.5086,
                "longitude": 121.019997
            },
            "destination": {
                "ICAO": "VVTS",
                "name": "Tan Son Nhat International Airport",
                "latitude": 10.8188,
                "longitude": 106.652
            }
        },
        {
            "departure": {
                "ICAO": "EPWA",
                "name": "Warsaw Chopin Airport",
                "latitude": 52.1656990051,
                "longitude": 20.967100143399996
            },
            "destination": {
                "ICAO": "LXGB",
                "name": "Gibraltar Airport",
                "latitude": 36.1511993408,
                "longitude": -5.3496599197400005
            }
        },
        {
            "departure": {
                "ICAO": "EGPH",
                "name": "Edinburgh Airport",
                "latitude": 55.95000076293945,
                "longitude": -3.372499942779541
            },
            "destination": {
                "ICAO": "EBBR",
                "name": "Brussels Airport",
                "latitude": 50.901401519800004,
                "longitude": 4.48443984985
            }
        },
        {
            "departure": {
                "ICAO": "EGPH",
                "name": "Edinburgh Airport",
                "latitude": 55.95000076293945,
                "longitude": -3.372499942779541
            },
            "destination": {
                "ICAO": "ENBR",
                "name": "Bergen Airport Flesland",
                "latitude": 60.29339981,
                "longitude": 5.218140125
            }
        },
        {
            "departure": {
                "ICAO": "EGSS",
                "name": "London Stansted Airport",
                "latitude": 51.8849983215,
                "longitude": 0.234999999404
            },
            "destination": {
                "ICAO": "EPLL",
                "name": "\u0141\u00f3d\u017a W\u0142adys\u0142aw Reymont Airport",
                "latitude": 51.721900939899996,
                "longitude": 19.3980998993
            }
        },
        {
            "departure": {
                "ICAO": "LEBL",
                "name": "Barcelona International Airport",
                "latitude": 41.2971,
                "longitude": 2.07846
            },
            "destination": {
                "ICAO": "LMML",
                "name": "Malta International Airport",
                "latitude": 35.857498,
                "longitude": 14.4775
            }
        },
        {
            "departure": {
                "ICAO": "EGSS",
                "name": "London Stansted Airport",
                "latitude": 51.8849983215,
                "longitude": 0.234999999404
            },
            "destination": {
                "ICAO": "LEBL",
                "name": "Barcelona International Airport",
                "latitude": 41.2971,
                "longitude": 2.07846
            }
        },
        {
            "departure": {
                "ICAO": "EGSS",
                "name": "London Stansted Airport",
                "latitude": 51.8849983215,
                "longitude": 0.234999999404
            },
            "destination": {
                "ICAO": "EGGP",
                "name": "Liverpool John Lennon Airport",
                "latitude": 53.33359909057617,
                "longitude": -2.849720001220703
            }
        },
        {
            "departure": {
                "ICAO": "EGSS",
                "name": "London Stansted Airport",
                "latitude": 51.8849983215,
                "longitude": 0.234999999404
            },
            "destination": {
                "ICAO": "LXGB",
                "name": "Gibraltar Airport",
                "latitude": 36.1511993408,
                "longitude": -5.3496599197400005
            }
        },
        {
            "departure": {
                "ICAO": "EGSS",
                "name": "London Stansted Airport",
                "latitude": 51.8849983215,
                "longitude": 0.234999999404
            },
            "destination": {
                "ICAO": "EPGD",
                "name": "Gda\u0144sk Lech Wa\u0142\u0119sa Airport",
                "latitude": 54.377601623535156,
                "longitude": 18.46619987487793
            }
        },
        {
            "departure": {
                "ICAO": "EGSS",
                "name": "London Stansted Airport",
                "latitude": 51.8849983215,
                "longitude": 0.234999999404
            },
            "destination": {
                "ICAO": "LOWK",
                "name": "Klagenfurt Airport",
                "latitude": 46.642502,
                "longitude": 14.3377
            }
        },
        {
            "departure": {
                "ICAO": "LFLL",
                "name": "Lyon Saint-Exup\u00e9ry Airport",
                "latitude": 45.725556,
                "longitude": 5.081111
            },
            "destination": {
                "ICAO": "LEMG",
                "name": "M\u00e1laga Airport",
                "latitude": 36.67490005493164,
                "longitude": -4.499110221862793
            }
        },
        {
            "departure": {
                "ICAO": "EGPH",
                "name": "Edinburgh Airport",
                "latitude": 55.95000076293945,
                "longitude": -3.372499942779541
            },
            "destination": {
                "ICAO": "ENVA",
                "name": "Trondheim Airport V\u00e6rnes",
                "latitude": 63.4578018,
                "longitude": 10.9239998
            }
        },
        {
            "departure": {
                "ICAO": "EKVG",
                "name": "V\u00e1gar Airport",
                "latitude": 62.063599,
                "longitude": -7.27722
            },
            "destination": {
                "ICAO": "EGPH",
                "name": "Edinburgh Airport",
                "latitude": 55.95000076293945,
                "longitude": -3.372499942779541
            }
        },
        {
            "departure": {
                "ICAO": "EGSS",
                "name": "London Stansted Airport",
                "latitude": 51.8849983215,
                "longitude": 0.234999999404
            },
            "destination": {
                "ICAO": "LSZH",
                "name": "Z\u00fcrich Airport",
                "latitude": 47.458056,
                "longitude": 8.548056
            }
        },
        {
            "departure": {
                "ICAO": "LMML",
                "name": "Malta International Airport",
                "latitude": 35.857498,
                "longitude": 14.4775
            },
            "destination": {
                "ICAO": "LIRF",
                "name": "Leonardo da Vinci\u2013Fiumicino Airport",
                "latitude": 41.8002778,
                "longitude": 12.2388889
            }
        },
        {
            "departure": {
                "ICAO": "RPVM",
                "name": "Mactan Cebu International Airport",
                "latitude": 10.307499885559,
                "longitude": 123.97899627686
            },
            "destination": {
                "ICAO": "RPVA",
                "name": "Daniel Z. Romualdez Airport",
                "latitude": 11.228035,
                "longitude": 125.027761
            }
        },
        {
            "departure": {
                "ICAO": "EGSS",
                "name": "London Stansted Airport",
                "latitude": 51.8849983215,
                "longitude": 0.234999999404
            },
            "destination": {
                "ICAO": "EGJJ",
                "name": "Jersey Airport",
                "latitude": 49.20790100097656,
                "longitude": -2.195509910583496
            }
        },
        {
            "departure": {
                "ICAO": "EPGD",
                "name": "Gda\u0144sk Lech Wa\u0142\u0119sa Airport",
                "latitude": 54.377601623535156,
                "longitude": 18.46619987487793
            },
            "destination": {
                "ICAO": "LYBE",
                "name": "Belgrade Nikola Tesla Airport",
                "latitude": 44.8184013367,
                "longitude": 20.3090991974
            }
        },
        {
            "departure": {
                "ICAO": "EGNX",
                "name": "East Midlands Airport",
                "latitude": 52.8311004639,
                "longitude": -1.32806003094
            },
            "destination": {
                "ICAO": "EDDB",
                "name": "Berlin Brandenburg Airport",
                "latitude": 52.351389,
                "longitude": 13.493889
            }
        },
        {
            "departure": {
                "ICAO": "EGSS",
                "name": "London Stansted Airport",
                "latitude": 51.8849983215,
                "longitude": 0.234999999404
            },
            "destination": {
                "ICAO": "EHAM",
                "name": "Amsterdam Airport Schiphol",
                "latitude": 52.308601,
                "longitude": 4.76389
            }
        }
    ]
}